{
  "dismantlerProperties" : {
    "expiryDate" : "2025-05-12",
    "governmentAddress" : {
      "houseNumber" : "45",
      "zip" : "68161/12",
      "name" : "VLhpfQGTMDYpsBZxvfBoeygjb",
      "country" : "RB",
      "location" : "Mannheim",
      "street" : "Bernstraße"
    },
    "dismantlerAuditorContact" : {
      "fax" : "+8407157 4523209603 17170872236345369043597  9 7683",
      "phone" : "+ 37269 4704 9323148607148 89155 92540148578331729777087  93988 9018 982677478124155"
    },
    "receiverAuditorAddress" : {
      "houseNumber" : "45",
      "zip" : "68161/12",
      "name" : "UMaAIKKIkknjWEXJUfPxxQHeWKEJ",
      "country" : "OZ",
      "location" : "Mannheim",
      "street" : "Bernstraße"
    },
    "dismantlerContact" : {
      "fax" : "+026801 315 4  0625 703 658 20597",
      "phone" : "+3832 3328"
    },
    "dismantlerAuditorAddress" : {
      "houseNumber" : "45",
      "zip" : "68161/12",
      "name" : "dpHYZGhtgdntugzvvKAXLhM",
      "country" : "WV",
      "location" : "Mannheim",
      "street" : "Bernstraße"
    },
    "dismantlerAddress" : {
      "houseNumber" : "45",
      "zip" : "68161/12",
      "name" : "RYtGKbgicZaHCBRQDSx",
      "country" : "IT",
      "location" : "Mannheim",
      "street" : "Bernstraße"
    },
    "issueDate" : "2025-05-12",
    "isVehicleWithdrawnFromService" : false
  },
  "serialNumber" : "LRP1087432",
  "companyNumber" : "S30A00065",
  "vehicleProperties" : {
    "licenseAbbreviation" : "HAL",
    "isVehicleInformationComplete" : false,
    "licensePlate" : "HAL-UI123",
    "identification" : "WBAAY711X0KC28153",
    "emptyWeight" : -179769313486231570000000000000000000000000000000000000000000000000000000000000000000000000000000000000000000000000000000000000000000000000000000000000000000000000000000000000000000000000000000000000000000000000000000000000000000000000000000000000000000000000000000000000000000000000000000000000000000000000000,
    "model" : "318 I",
    "brand" : "BMW",
    "class" : "01",
    "firstRegistration" : "19.12.2014"
  },
  "returnPointProperties" : {
    "expiryDate" : "2025-05-12",
    "receiverAddress" : {
      "houseNumber" : "45",
      "zip" : "68161/12",
      "name" : "JxkyvRnL",
      "country" : "UA",
      "location" : "Mannheim",
      "street" : "Bernstraße"
    },
    "receiverAuditorAddress" : {
      "houseNumber" : "45",
      "zip" : "68161/12",
      "name" : "yedUsFwdkelQbxeTeQOvaScfqIOOmaa",
      "country" : "LN",
      "location" : "Mannheim",
      "street" : "Bernstraße"
    },
    "receiverAuditorContact" : {
      "fax" : "093074853653 8",
      "phone" : " 644 66970598904520516 4 644369 785328452465651 00497 9309166530 131608 412"
    },
    "receiverContact" : {
      "fax" : "905100493 5260936160 40418124 212 533716004438689002669618041",
      "phone" : "199988904472 9 6241955201535791615431934 416599 432495113 5579108208 1095  7 16951341 "
    },
    "issueDate" : "2025-05-12",
    "isVehicleWithdrawnFromService" : true
  },
  "vehicleOwnerProperties" : {
    "isVehicleOwnerInformationComplete" : true,
    "vehicleOwnerAddress" : {
      "houseNumber" : "45",
      "zip" : "68161/12",
      "name" : "eOMtThyhVNLWUZNRcBaQKxI",
      "country" : "SJ",
      "location" : "Mannheim",
      "street" : "Bernstraße"
    },
    "citizenship" : "DE"
  },
  "dismantlingDate" : "2025-05-12"
}